City_ID,City,Country,Date,Lat,Lng,Max Temp,Humidity,Cloudiness,Wind Speed
2126710,beringovskiy,RU,1644099910,63.05,179.3167,-10.55,93,54,13.78
2123814,leningradskiy,RU,1644099830,69.3833,178.4167,-22.02,96,8,3.74
2186338,murupara,NZ,1644100068,-38.4667,176.7,70.56,100,100,3.29
2179756,waiuku,NZ,1644100007,-37.25,174.75,72.66,99,100,8.01
2186111,ngunguru,NZ,1644099881,-35.6167,174.5,76.15,97,100,12.71
2189343,kaeo,NZ,1644100054,-35.1,173.7833,76.32,97,87,7.31
2194098,ahipara,NZ,1644099881,-35.1667,173.1667,73.08,93,99,5.99
2110227,butaritari,KI,1644099790,3.0707,172.7902,82.67,73,52,19.33
2179825,waitati,NZ,1644100024,-45.75,170.5667,53.8,78,19,9.62
2122090,pevek,RU,1644099901,69.7008,170.3133,-27.63,99,34,2.24
2208248,kaitangata,NZ,1644099772,-46.2817,169.8464,54.93,60,95,5.86
2136825,isangel,VU,1644099999,-19.55,169.2667,82.51,89,75,9.22
6201424,mataura,NZ,1644099849,-46.1927,168.8643,55.47,89,100,1.1
2206939,bluff,NZ,1644099757,-46.6,168.3333,55.8,65,62,12.5
2181625,te anau,NZ,1644100107,-45.4167,167.7167,56.73,56,13,4.05
2180815,tuatapere,NZ,1644099829,-46.1333,167.6833,55.81,78,99,3.4
2137773,vao,NC,1644099990,-22.6667,167.4833,80.08,86,34,11.99
2136150,luganville,VU,1644099824,-15.5333,167.1667,83.86,74,90,4.72
2138555,poum,NC,1644099985,-20.2333,164.0167,80.4,75,100,3.85
2178753,kirakira,SB,1644100071,-10.4544,161.9205,83.95,78,88,7.36
2126199,cherskiy,RU,1644100056,68.75,161.3,-32.85,97,17,1.52
2125711,esso,RU,1644100038,55.9333,158.7,13.26,90,84,1.7
2122104,petropavlovsk-kamchatskiy,RU,1644099816,53.0452,158.6483,19.99,58,75,11.18
2108857,gizo,SB,1644100083,-8.103,156.8419,84.49,74,92,9.15
2122293,ozernovskiy,RU,1644100099,51.5,156.5167,24.78,88,98,5.64
2121385,severo-kurilsk,RU,1644100075,50.6789,156.125,28.36,82,99,7.9
2121025,srednekolymsk,RU,1644100067,67.45,153.6833,-39.62,99,36,2.55
2174933,bongaree,AU,1644100119,-27.0797,153.1586,74.39,73,81,24.05
2147381,taree,AU,1644100048,-31.9,152.4667,69.58,94,100,8.05
2090021,namatanai,PG,1644100058,-3.6667,152.4333,83.26,70,66,10.2
2121373,seymchan,RU,1644100095,62.8833,152.4333,-43.24,100,75,1.39
2161376,kingaroy,AU,1644100074,-26.5333,151.8333,66.24,72,100,13.8
2177671,armidale,AU,1644100105,-30.5167,151.65,54.81,92,87,10.4
2171845,cessnock,AU,1644100020,-32.8333,151.35,73.22,84,52,9.66
2119283,zyryanka,RU,1644100113,65.75,150.85,-41.01,100,52,2.57
2094342,kavieng,PG,1644100057,-2.5744,150.7967,82.29,75,53,4.59
2120047,ust-omchug,RU,1644100012,61.15,149.6333,-26.95,85,40,2.24
2168305,dubbo,AU,1644100085,-32.25,148.6167,66.33,63,11,10.36
2167426,emerald,AU,1644100032,-23.5333,148.1667,75.34,60,75,13.8
6533368,moranbah,AU,1644100049,-22.0016,148.0466,72.16,62,2,20.18
2126123,chokurdakh,RU,1644099854,70.6333,147.9167,-31.27,100,100,1.68
2123979,kurilsk,RU,1644100035,45.2333,147.8833,22.06,87,100,17.07
2097418,finschhafen,PG,1644100117,-6.6024,147.8681,82.58,78,100,11.32
2163355,hobart,AU,1644099990,-42.8794,147.3294,64.02,68,75,6.91
2092164,lorengau,PG,1644100016,-2.0226,147.2712,82.44,73,81,6.76
2088122,port moresby,PG,1644099984,-9.4431,147.1797,78.22,78,40,11.5
2155415,new norfolk,AU,1644099777,-42.7826,147.0587,63.66,60,96,2.42
2173125,burnie,AU,1644099965,-41.0667,145.9167,61.95,81,74,11.77
2094144,kerema,PG,1644100130,-7.9631,145.7785,78.84,79,100,8.16
2154826,wonthaggi,AU,1644100087,-38.6044,145.5913,69.21,67,8,15.32
2128975,nemuro,JP,1644100031,43.3236,145.575,22.69,73,90,17.72
2122605,okhotsk,RU,1644099984,59.3833,143.3,-9.6,71,21,13.06
2120048,ust-nera,RU,1644100052,64.5667,143.2,-24.47,69,7,2.42
2171099,codrington,AU,1644099754,-38.2667,141.9667,63.64,66,52,11.77
2111884,miyako,JP,1644100020,39.6367,141.9525,24.49,65,14,7.18
2084442,vanimo,PG,1644100075,-2.6741,141.3028,78.71,87,100,4.38
2112802,hasaki,JP,1644100082,35.7333,140.8333,23.4,44,18,12.91
2156643,mount gambier,AU,1644100068,-37.8333,140.7667,66.11,63,75,10.36
2082539,merauke,ID,1644100044,-8.4667,140.3333,78.53,91,100,9.91
2112309,katsuura,JP,1644100072,35.1333,140.3,37.42,56,8,11.81
2019935,mnogovershinnyy,RU,1644100055,53.9353,139.9242,-3.78,90,100,5.53
2065594,mount isa,AU,1644100021,-20.7333,139.5,78.57,41,0,8.05
2065176,murray bridge,AU,1644100002,-35.1167,139.2667,79.48,36,85,10.47
1852357,shimoda,JP,1644099804,34.6667,138.95,35.1,61,5,26.44
2063056,port augusta,AU,1644100125,-32.5,137.7667,78.71,26,67,14.09
2013279,vostok,RU,1644099923,46.4856,135.8833,-12.46,99,100,3.0
2063036,port lincoln,AU,1644099834,-34.7333,135.8667,71.69,65,98,16.58
2013921,ust-kuyga,RU,1644100107,70.0167,135.6,-36.72,99,100,4.56
2022773,khandyga,RU,1644100103,62.6667,135.6,-45.92,100,82,2.51
2013918,ust-maya,RU,1644100048,60.4167,134.5333,-30.32,100,100,1.28
7671223,kloulklubed,PW,1644100090,7.0419,134.2556,75.7,80,98,21.88
1636308,manokwari,ID,1644100071,-0.8667,134.0833,77.99,76,100,3.44
1853174,sakaiminato,JP,1644100077,35.55,133.2333,33.78,86,75,13.8
1623197,tual,ID,1644100102,-5.6667,132.75,83.3,74,100,9.75
6355222,yulara,AU,1644100001,-25.2406,130.9889,69.64,49,0,9.22
2039557,khasan,RU,1644100007,42.4308,130.6434,11.46,60,5,20.15
1855540,naze,JP,1644100043,28.3667,129.4833,45.52,68,100,17.16
2015306,tiksi,RU,1644100003,71.6872,128.8694,-22.47,98,91,7.61
1863997,fukue,JP,1644099881,32.6881,128.8419,42.12,60,100,26.37
2068110,kununurra,AU,1644099994,-15.7667,128.7333,76.98,100,100,3.44
1861280,itoman,JP,1644100115,26.1247,127.6694,57.22,54,20,16.11
2012593,zeya,RU,1644100042,53.75,127.2667,-4.72,86,97,4.07
1835848,seoul,KR,1644099904,37.5683,126.9778,22.44,76,0,1.14
1688696,san policarpo,PH,1644100109,12.1791,125.5072,80.04,75,100,17.45
1651810,airai,TL,1644100013,-8.9266,125.4092,60.8,91,93,1.5
1862505,hirara,JP,1644100000,24.8,125.2833,60.66,67,75,17.27
2034600,taikang,CN,1644100075,46.8333,124.4167,-8.05,94,83,4.54
1701054,marawi,PH,1644100088,7.9986,124.2928,65.64,91,11,1.45
1958535,maranding,PH,1644100003,7.9248,123.7715,75.47,87,56,5.08
2012530,zhigansk,RU,1644100074,66.7697,123.3711,-26.63,98,100,5.95
1714733,dingle,PH,1644100123,10.9995,122.6711,74.28,84,92,10.6
1715015,dicabisagan,PH,1644100033,17.0818,122.4157,73.13,89,94,9.48
1795632,shenjiamen,CN,1644100095,29.9576,122.298,39.25,64,44,11.97
2071860,esperance,AU,1644099815,-33.8667,121.9,66.04,68,5,17.65
1644932,ende,ID,1644100023,-8.8432,121.6623,77.56,88,63,5.57
1687894,santa rosa,PH,1644099642,14.3122,121.1114,78.78,72,94,14.58
2027806,amazar,RU,1644100121,53.858,120.875,-6.34,93,96,4.21
1695180,simbahan,PH,1644100045,6.3032,120.5836,81.36,80,98,14.45
1730272,araceli,PH,1644100090,10.5529,119.9913,79.68,80,100,25.46
1696188,palauig,PH,1644100076,15.435,119.9045,76.44,72,81,6.6
1629974,rantepao,ID,1644100034,-2.9701,119.8978,66.58,95,99,2.15
1644605,galesong,ID,1644100023,-5.3166,119.3661,75.22,84,100,6.4
1636806,majene,ID,1644100088,-3.5403,118.9707,77.02,86,98,5.17
2035707,mujiayingzi,CN,1644100106,42.1167,118.7833,6.71,73,0,8.01
1789289,dayong,CN,1644100091,25.0209,118.2898,53.28,81,98,2.95
2025630,chara,RU,1644099962,56.9064,118.2631,-18.58,83,16,1.48
2021618,krasnokamensk,RU,1644100066,50.0979,118.0369,-11.0,93,99,4.29
1808931,hangu,CN,1644100084,39.2489,117.7892,26.64,56,4,7.07
2015913,suntar,RU,1644100053,62.1444,117.6319,-9.26,100,96,4.05
2012780,zabaykalsk,RU,1644100067,49.6333,117.3167,-8.21,98,86,6.8
2062276,roebourne,AU,1644100043,-20.7833,117.1333,83.34,76,64,6.71
6620339,karratha,AU,1644100029,-20.7377,116.8463,83.61,74,74,7.67
1816670,pekin,CN,1644099978,39.9075,116.3972,30.09,37,29,5.44
2063523,perth,AU,1644099931,-31.9333,115.8333,73.09,85,75,4.61
2075265,busselton,AU,1644099754,-33.65,115.3333,66.04,90,18,6.85
2070998,geraldton,AU,1644099845,-28.7667,114.6,73.81,88,100,10.36
1819729,victoria,HK,1644099916,22.2855,114.1577,60.24,83,100,1.99
2017155,saskylakh,RU,1644099752,71.9167,114.0833,-27.76,100,99,3.31
1626099,sumenep,ID,1644100006,-7.0167,113.8667,77.5,89,97,7.07
1788046,xuchang,CN,1644100004,34.0167,113.8167,29.28,39,100,4.12
2074865,carnarvon,AU,1644099986,-24.8667,113.6333,77.07,88,75,9.22
2032614,baruun-urt,MN,1644100109,46.6806,113.2792,-2.85,91,9,5.84
1737486,bintulu,MY,1644100117,3.1667,113.0333,77.41,94,20,4.61
2020313,mama,RU,1644100113,58.3106,112.8986,2.59,98,100,6.29
2018069,peleduy,RU,1644100055,59.6289,112.7406,8.28,96,100,4.9
1633442,paciran,ID,1644100120,-6.8767,112.3761,77.68,87,93,10.49
8079926,labuhan,ID,1644100123,-6.8844,112.2051,77.41,87,96,9.93
2037485,erenhot,CN,1644100008,43.6475,111.9767,2.64,89,5,7.74
1648451,bojonegoro,ID,1644100036,-7.1502,111.8817,74.3,93,80,6.15
2027296,aykhal,RU,1644100116,66.0,111.5,-11.76,100,92,4.5
1650434,bambanglipuro,ID,1644100002,-7.95,110.2833,62.6,85,76,2.42
1630789,pontianak,ID,1644100125,-0.0333,109.3333,75.18,100,100,2.3
1631637,pemangkat,ID,1644099832,1.1667,108.9667,77.41,88,86,5.46
2031964,darhan,MN,1644100114,49.4867,105.9228,-4.92,92,98,6.24
1816751,beidao,CN,1644100131,34.5686,105.8933,24.21,83,100,3.94
2032201,bulgan,MN,1644100028,48.8125,103.5347,-3.41,86,45,4.59
2027002,bayangol,RU,1644100111,50.6977,103.4656,-11.22,97,55,3.74
2022572,khatanga,RU,1644099814,71.9667,102.5,-24.05,96,99,3.36
1649150,bengkulu,ID,1644100063,-3.8004,102.2655,72.93,95,100,9.95
1735076,butterworth,MY,1644100092,5.3991,100.3638,80.01,89,20,2.3
1633419,padang,ID,1644099989,-0.9492,100.3543,74.14,94,100,3.76
1735106,georgetown,MY,1644099969,5.4112,100.3354,79.9,88,20,2.3
1503037,kodinsk,RU,1644099987,58.6881,99.1844,17.17,91,100,10.31
1213855,sibolga,ID,1644100005,1.7427,98.7792,75.09,91,100,2.57
1510689,baykit,RU,1644099911,61.67,96.37,15.31,90,98,9.17
1214488,meulaboh,ID,1644099998,4.1363,96.1285,75.43,84,100,3.31
1215502,banda aceh,ID,1644099872,5.5577,95.3222,78.24,78,96,4.72
1214026,sabang,ID,1644100089,5.8933,95.3214,80.83,75,96,11.16
1278969,along,IN,1644099990,28.1667,94.7667,44.91,97,53,1.66
1252840,wokha,IN,1644100061,26.1,94.2667,36.12,97,20,2.93
1529484,hami,CN,1644099857,42.8,93.45,26.37,28,100,8.99
1185095,teknaf,BD,1644100102,20.8624,92.3058,61.93,92,28,9.64
1516048,hovd,MN,1644100108,48.0056,91.6419,-13.43,78,21,4.09
1510377,belyy yar,RU,1644100037,53.6039,91.3903,-12.14,84,69,4.47
1254046,tura,IN,1644100022,25.5198,90.2201,48.42,92,0,2.33
1185239,mathbaria,BD,1644100126,22.2876,89.9593,57.92,61,0,5.03
1490256,talnakh,RU,1644099897,69.4865,88.3972,-17.84,100,99,2.71
1337240,nawabganj,BD,1644099996,24.5911,88.271,55.4,80,0,4.25
1488903,turukhansk,RU,1644100098,65.8167,87.9833,-18.08,100,65,1.19
1258658,ramjibanpur,IN,1644100048,22.8333,87.6167,57.0,60,0,5.37
1272237,dumka,IN,1644100010,24.2667,87.25,54.82,65,0,4.99
1529376,korla,CN,1644100108,41.7597,86.1469,22.87,42,72,8.9
1508894,borovoy,RU,1644100043,55.4333,86.0833,11.48,72,0,4.47
1529195,shihezi,CN,1644100046,44.3,86.0333,-1.35,93,55,5.32
1259184,puri,IN,1644100085,19.8,85.85,57.72,46,99,5.35
1488167,ust-koksa,RU,1644100116,50.2696,85.6108,-5.15,82,50,1.16
1283581,kalaiya,NP,1644100121,27.0327,85.0022,52.21,89,0,3.4
1261853,narasannapeta,IN,1644100060,18.4167,84.05,65.52,56,89,5.64
1520316,oskemen,KZ,1644100059,49.9565,82.6119,-13.04,76,100,4.47
1283285,jumla,NP,1644100038,29.2747,82.1838,24.44,60,1,6.08
1242110,kalmunai,LK,1644100056,7.4167,81.8167,74.12,78,80,6.62
1224061,wattegama,LK,1644100048,6.7989,81.4808,67.01,95,90,4.32
1504382,kargasok,RU,1644100120,59.0556,80.8572,19.24,93,100,5.93
1507390,dikson,RU,1644099993,73.5069,80.5464,-19.23,100,99,3.18
1235846,matara,LK,1644100047,5.9485,80.5353,72.68,91,50,7.43
1529660,aksu,CN,1644100083,41.1231,80.2644,22.62,64,80,5.79
1503856,khabary,RU,1644100122,53.6259,79.5345,2.25,89,56,7.05
1272145,dwarahat,IN,1644099995,29.7833,79.4333,37.27,80,1,3.18
1489853,tazovskiy,RU,1644099993,67.4667,78.7,-14.35,100,87,7.05
1490085,tarko-sale,RU,1644100028,64.9225,77.785,-17.64,100,95,3.58
1264976,leh,IN,1644100015,34.1667,77.5833,0.5,76,97,2.46
1256431,shorapur,IN,1644100026,16.5167,76.75,67.75,35,54,8.52
1274571,charkhi dadri,IN,1644099994,28.6,76.2667,47.88,80,5,2.62
1280849,kashi,CN,1644100093,39.4547,75.9797,29.23,74,75,4.47
1259552,pipri,IN,1644100128,19.8,75.5333,61.93,27,1,4.92
1275665,bikaner,IN,1644100002,28.0167,73.3,57.79,36,1,10.94
1501710,krutaya gorka,RU,1644100132,55.3649,73.2231,2.88,85,100,7.49
1282256,hithadhoo,MV,1644099799,-0.6,73.0833,81.77,75,81,11.52
1337613,kulhudhuffushi,MV,1644099898,6.6221,73.07,79.63,70,14,5.88
1337605,mahibadhoo,MV,1644099989,3.7833,72.9667,81.19,70,20,10.18
1490918,staryy nadym,RU,1644100058,65.6118,72.6842,-19.14,100,100,0.94
1267390,kavaratti,IN,1644100042,10.5669,72.642,78.08,63,15,8.9
1513491,komsomolskiy,UZ,1644100022,40.4272,71.7189,36.82,38,100,4.61
1526041,atasu,KZ,1644099998,48.6814,71.6433,14.76,64,2,16.71
1486321,yar-sale,RU,1644100064,66.8333,70.8333,-12.82,100,80,2.28
1506268,gornopravdinsk,RU,1644100009,60.05,69.9,16.54,98,100,2.95
1514829,altyn-topkan,TJ,1644100131,40.6528,69.5998,34.27,26,100,6.49
1135690,isa khel,AF,1644100050,36.6702,68.8443,50.85,27,75,2.66
1262062,naliya,IN,1644100124,23.2667,68.8333,65.14,79,0,5.39
1164896,sibi,PK,1644100086,29.5448,67.8764,61.79,26,0,4.0
1216787,kitob,UZ,1644100025,39.0843,66.8332,50.58,91,100,4.12
1501429,kuminskiy,RU,1644100071,58.6667,66.5667,14.07,96,100,2.82
1513087,nurota,UZ,1644100017,40.5614,65.6886,44.69,51,100,18.03
1512101,agirish,RU,1644099993,61.9247,63.0231,6.1,99,88,5.55
1128239,rudbar,AF,1644100106,30.15,62.6,62.55,32,0,9.57
1161724,chabahar,IR,1644100114,25.2919,60.643,71.17,74,0,5.19
1159362,torbat-e jam,IR,1644100005,35.244,60.6225,42.48,85,58,6.55
1487332,verkhnyaya inta,RU,1644100012,65.9811,60.3094,-11.13,94,10,4.09
1505579,inta,RU,1644100018,66.0317,60.1659,-13.65,96,21,3.51
609924,emba,KZ,1644100035,48.8264,58.1442,19.11,95,100,4.07
1106643,quatre cocos,MU,1644099846,-20.2078,57.7625,79.09,82,100,17.4
1106677,bambous virieux,MU,1644100041,-20.3428,57.7575,79.21,89,40,11.5
934322,mahebourg,MU,1644100080,-20.4081,57.7,79.25,89,40,11.5
934479,grand gaube,MU,1644099910,-20.0064,57.6608,79.38,78,100,5.99
933995,souillac,MU,1644099831,-20.5167,57.5167,79.36,89,40,11.5
119374,qeshm,IR,1644100111,26.9581,56.2719,66.09,78,0,15.57
935215,saint-philippe,RE,1644099876,-21.3585,55.7679,80.19,84,100,19.01
161974,gazanjyk,TM,1644100079,39.2446,55.5154,40.78,84,94,13.96
935214,saint-pierre,RE,1644099962,-21.3393,55.4781,80.28,74,0,9.22
935616,le port,RE,1644099997,-20.9373,55.2919,80.6,84,100,18.32
610298,beyneu,KZ,1644100054,45.3167,55.2,31.23,96,100,20.69
569742,chaykovskiy,RU,1644100091,56.7686,54.1148,15.12,97,100,2.91
286621,salalah,OM,1644099833,17.0151,54.0924,75.29,69,40,5.75
609919,kuryk,KZ,1644100051,43.2,51.65,36.48,66,100,17.25
64814,bandarbeyla,SO,1644100013,9.4942,50.8122,74.19,72,81,9.28
523583,nagorsk,RU,1644100101,59.3172,50.8078,14.59,98,100,5.5
290340,manama,BH,1644100120,26.2154,50.5832,64.38,48,0,20.71
1056899,sambava,MG,1644100100,-14.2667,50.1667,75.49,89,100,4.41
53157,qandala,SO,1644100070,11.472,49.8728,73.56,63,93,1.23
524243,murygino,RU,1644100056,58.7383,49.4582,21.52,96,99,6.11
57000,hobyo,SO,1644100034,5.3505,48.5268,75.56,72,3,10.85
58933,garowe,SO,1644100097,8.4054,48.4845,66.56,66,75,8.03
489164,staraya kulatka,RU,1644100078,52.7167,47.6167,26.64,97,100,4.68
498295,savinka,RU,1644100127,50.0785,47.0994,8.96,96,60,9.51
117574,sanandaj,IR,1644100099,35.3144,46.9923,33.82,69,40,0.0
72181,marzuq,YE,1644099966,14.4,46.4667,65.77,40,42,2.46
1067565,beloha,MG,1644099904,-25.1667,45.05,75.31,83,100,19.13
415189,aden,YE,1644099850,12.7794,45.0367,78.03,64,41,6.31
103630,najran,SA,1644100000,17.4924,44.1277,66.85,59,0,3.2
107304,buraydah,SA,1644099818,26.326,43.975,50.45,43,0,8.03
69500,zabid,YE,1644100025,14.1951,43.3152,75.09,79,46,16.31
921772,moroni,KM,1644100018,-11.7022,43.2551,79.05,80,100,3.98
325336,adilcevaz,TR,1644100101,38.8039,42.7342,15.51,48,0,4.5
223816,jibuti,DJ,1644100070,11.5,42.5,72.82,47,0,3.76
462522,zimovniki,RU,1644100017,47.1483,42.4633,28.13,83,89,10.89
110690,faya,SA,1644100066,18.3851,42.4509,51.91,78,7,3.53
542452,krasnoarmeyskiy,RU,1644100096,47.0114,42.2072,27.61,87,98,8.7
575413,bokovskaya,RU,1644100089,49.229,41.8306,10.6,95,12,6.49
525138,morshansk,RU,1644100105,53.4435,41.8107,-3.95,100,85,4.41
549748,kholmogory,RU,1644100094,64.2229,41.656,3.31,90,98,9.13
615460,pitsunda,GE,1644099994,43.1592,40.3378,33.98,68,95,9.17
342641,bati,ET,1644100025,11.1833,40.0167,61.81,70,5,3.6
1052944,angoche,MZ,1644099963,-16.2325,39.9086,76.73,82,18,10.02
526083,mitrofanovka,RU,1644100122,49.9708,39.6939,4.41,100,83,6.22
298846,tunceli,TR,1644100098,39.1083,39.5471,26.89,80,32,6.42
878054,masuguru,TZ,1644100112,-11.3667,38.4167,72.46,89,100,2.13
575521,bogorodskoye,RU,1644100121,56.55,37.8833,6.26,99,87,7.34
529368,marfino,RU,1644100062,55.7028,37.3822,10.35,85,100,8.95
100926,umm lajj,SA,1644099753,25.0213,37.2685,62.98,59,0,14.09
473943,vesyegonsk,RU,1644100087,58.664,37.2604,6.73,98,88,6.26
172515,abu samrah,SY,1644100065,35.3029,37.1841,43.23,83,21,6.22
554535,kaduy,RU,1644100111,59.2,37.15,7.38,98,91,7.14
336496,gimbi,ET,1644100051,9.1667,35.8333,57.22,41,99,0.04
330120,nedjo,ET,1644100127,9.5046,35.5019,57.27,43,98,3.53
1045114,inhambane,MZ,1644100039,-23.865,35.3833,78.13,73,7,16.15
924572,nsanje,MW,1644100098,-16.92,35.262,71.4,96,22,1.32
293842,gat,IL,1644100103,31.61,34.7642,53.4,100,79,7.72
227812,njeru,UG,1644100110,0.4186,33.1731,65.66,86,100,3.04
962367,richards bay,ZA,1644100094,-28.783,32.0377,72.14,86,100,8.05
525426,sobolevo,RU,1644100122,54.4299,31.8996,30.56,96,100,14.09
893485,chiredzi,ZW,1644100011,-21.05,31.6667,72.03,76,46,9.98
524100,muyezerskiy,RU,1644100027,63.9333,31.65,18.59,93,100,11.68
503581,pyaozerskiy,RU,1644100126,65.8333,31.1667,19.42,92,100,11.1
546105,nikolskoye,RU,1644100032,59.7035,30.7861,27.88,95,100,8.19
745664,hendek,TR,1644100096,40.7994,30.7481,25.12,68,3,6.38
320533,bucak,TR,1644100036,37.4592,30.595,32.52,58,2,3.29
10722858,svetlogorsk,BY,1644099848,52.6333,29.7333,31.98,87,100,14.54
423549,rumonge,BI,1644100118,-3.9736,29.4386,69.67,81,100,3.02
508743,plyussa,RU,1644100024,58.4308,29.3654,28.26,96,100,4.09
965401,phuthaditjhaba,ZA,1644100027,-28.5242,28.8158,57.07,98,99,4.54
374739,gogrial,SS,1644100000,8.5332,28.1004,75.06,17,99,8.97
1006984,east london,ZA,1644099771,-33.0153,27.9116,69.35,88,100,16.53
778707,mehamn,NO,1644099852,71.0357,27.8492,28.58,86,13,21.0
779261,kjollefjord,NO,1644099997,70.9457,27.3465,28.45,83,24,26.49
986846,kroonstad,ZA,1644099999,-27.6504,27.2349,63.75,85,84,11.3
964432,port alfred,ZA,1644099755,-33.5906,26.891,70.68,83,87,26.22
1003953,fort beaufort,ZA,1644100131,-32.7748,26.6338,62.35,85,3,4.63
686090,asau,RO,1644100088,46.4333,26.4,33.4,96,88,3.42
256155,palaikastron,GR,1644100001,35.2,26.25,49.75,68,23,6.44
779554,honningsvag,NO,1644100015,70.9821,25.9704,28.15,74,75,28.77
912628,kasempa,ZM,1644100039,-13.4584,25.8338,64.24,98,100,3.38
964420,port elizabeth,ZA,1644100049,-33.918,25.5701,69.1,94,40,16.11
630166,berezovka,BY,1644100050,53.7214,25.4993,32.63,93,100,13.87
80509,bardiyah,LY,1644100115,31.7561,25.0865,54.81,64,0,13.09
990930,kimberley,ZA,1644100132,-28.7323,24.7623,65.89,82,95,10.36
986717,kruisfontein,ZA,1644099798,-34.0033,24.7314,67.89,80,52,16.71
634093,tornio,FI,1644100014,65.8481,24.1466,26.62,94,94,15.12
731675,elin pelin,BG,1644100001,42.6667,23.6,39.02,81,0,11.5
933366,maun,BW,1644100096,-19.9833,23.4167,68.83,87,53,4.74
265191,amfiklia,GR,1644100127,38.6333,22.5833,41.32,93,85,1.25
933077,shakawe,BW,1644100110,-18.3667,21.85,67.35,90,68,3.09
218680,boende,CD,1644099797,-0.2167,20.8667,74.3,65,49,1.97
485660,svetlyy,RU,1644100083,54.675,20.1347,37.45,78,95,19.77
1015776,bredasdorp,ZA,1644099855,-34.5322,20.0403,68.29,77,87,21.85
3366880,hermanus,ZA,1644100010,-34.4187,19.2345,72.9,83,26,14.67
3092472,marienburg,PL,1644100062,54.0359,19.0266,38.86,77,99,14.45
3369157,cape town,ZA,1644099915,-33.9258,18.4232,73.11,64,0,1.99
3361934,saldanha,ZA,1644099810,-33.0117,17.9442,73.45,75,34,4.14
3187419,voljevac,BA,1644100031,43.8786,17.6592,32.45,87,88,2.37
3161456,bjerkvik,NO,1644100061,68.5597,17.5189,37.22,81,94,13.47
3353934,otavi,NA,1644100104,-19.65,17.3333,64.04,92,100,7.45
3353811,otjiwarongo,NA,1644100047,-20.4637,16.6477,65.28,90,100,4.76
2427336,moussoro,TD,1644099813,13.6408,16.4901,64.81,15,0,15.39
3354071,oranjemund,NA,1644100095,-28.55,16.4333,66.45,82,77,6.33
2729907,longyearbyen,SJ,1644100100,78.2186,15.6401,8.44,61,20,20.71
2242885,camabatela,AO,1644099874,-8.1881,15.375,61.54,95,100,1.12
2229798,kousseri,CM,1644100014,12.0769,15.0306,69.35,14,1,12.48
3356213,khorixas,NA,1644099884,-20.3667,14.9667,69.62,50,100,11.36
3191648,zlobin,HR,1644100129,45.2924,14.6541,39.16,65,0,9.22
3359638,walvis bay,NA,1644100064,-22.9575,14.5053,68.95,83,61,6.91
3356832,henties bay,NA,1644099957,-22.116,14.2845,66.85,81,23,4.16
3346015,sumbe,AO,1644100090,-11.2061,13.8437,75.34,81,58,6.02
3354077,opuwo,NA,1644100100,-18.0607,13.84,69.58,49,97,4.21
2313002,matadi,CD,1644100031,-5.8167,13.45,75.42,95,84,3.62
2240449,luanda,AO,1644100124,-8.8368,13.2343,77.0,78,20,6.91
2446796,bilma,NE,1644100064,18.6853,12.9164,60.69,19,0,6.38
3137469,sorland,NO,1644099900,67.667,12.6934,39.47,71,98,26.11
2236967,soyo,AO,1644100065,-6.1349,12.3689,77.97,85,85,7.74
3347019,namibe,AO,1644099772,-15.1961,12.1522,73.35,67,100,10.49
2345521,damaturu,NG,1644100079,11.747,11.9608,62.62,26,0,9.13
2340451,gombe,NG,1644100012,10.2897,11.1673,69.21,24,0,12.68
3175096,lasa,IT,1644100128,46.6166,10.7002,36.86,46,3,3.31
2399001,mayumba,GA,1644100062,-3.432,10.6554,76.6,88,13,3.2
2953413,bad langensalza,DE,1644100104,51.1,10.65,41.67,76,100,22.64
3034639,bastia,FR,1644100007,42.6667,9.3333,50.31,87,0,2.3
2523666,quartucciu,IT,1644100084,39.2519,9.1794,51.67,79,0,8.05
3038333,ajaccio,FR,1644100044,42.0,8.9167,44.65,87,100,5.75
2447513,arlit,NE,1644100073,18.7369,7.3853,60.82,15,0,4.18
3141667,roald,NO,1644100001,62.5833,6.1333,39.34,70,75,18.41
2319133,warri,NG,1644100086,5.5167,5.75,79.21,78,2,3.6
2759794,amsterdam,NL,1644100109,52.374,4.8897,47.89,92,75,10.0
2319078,wawa,NG,1644100028,9.9022,4.4192,79.36,21,2,5.7
2392087,porto novo,BJ,1644100066,6.4965,2.6036,82.22,86,0,6.87
3013619,hazebrouck,FR,1644100119,50.7237,2.5373,49.71,86,100,25.03
3020686,dunkirk,FR,1644100024,51.05,2.3667,50.02,74,100,5.99
2395915,abomey,BJ,1644100014,7.1829,1.9912,77.22,68,0,5.79
2457161,gao,ML,1644100084,16.6362,1.637,64.45,13,0,11.7
2455290,kidal,ML,1644099969,18.4411,1.4078,63.84,14,0,10.04
2643044,margate,GB,1644100072,51.3813,1.3862,50.97,74,100,8.99
3026285,chateaudun,FR,1644100011,48.0833,1.3333,39.94,75,93,13.09
2449893,tessalit,ML,1644100045,20.1986,1.0114,64.11,13,0,10.42
3013633,havre,FR,1644100124,49.5833,0.3333,47.97,71,0,16.11
2654970,brae,GB,1644100006,60.3964,-1.353,37.31,59,100,37.02
2294915,takoradi,GH,1644100087,4.8845,-1.7554,80.33,85,20,8.88
2303611,axim,GH,1644100097,4.8699,-2.2405,79.79,84,30,6.15
2458334,douentza,ML,1644100011,14.9951,-2.9517,69.13,11,0,5.5
2460489,bandiagara,ML,1644100130,14.3501,-3.6104,70.25,10,0,10.38
2646088,inverness,GB,1644100091,57.4791,-4.224,36.21,82,47,3.0
3129371,arroyo,ES,1644100121,41.6096,-4.7969,35.6,83,0,11.5
2618795,klaksvik,FO,1644100006,62.2266,-6.589,32.92,81,78,23.02
2281120,tabou,CI,1644100092,4.423,-7.3528,79.97,84,10,8.84
7117100,vila,PT,1644100019,42.0304,-8.1588,39.33,81,0,4.45
2738381,lata,PT,1644100002,40.1629,-8.3327,49.06,78,0,4.0
2264923,peniche,PT,1644099999,39.3558,-9.3811,54.88,83,0,14.58
2402689,zimmi,SL,1644100119,7.3153,-11.3061,74.89,93,19,2.26
2409914,bonthe,SL,1644100103,7.5264,-12.505,77.52,84,42,7.47
2381334,atar,MR,1644100030,20.5169,-13.0499,73.15,10,0,4.12
2512186,puerto del rosario,ES,1644100093,28.5004,-13.8627,65.88,82,0,10.36
2630299,hofn,IS,1644100067,64.2539,-15.2082,27.19,61,72,11.83
2374583,bubaque,GW,1644100115,11.2833,-15.8333,78.17,71,1,13.11
2377450,nouakchott,MR,1644099991,18.0858,-15.9785,69.73,51,0,13.09
2270385,camacha,PT,1644099914,33.0833,-16.3333,62.53,82,40,20.71
2377457,nouadhibou,MR,1644100073,20.931,-17.0347,66.18,94,0,14.97
2264557,ponta do sol,PT,1644099848,32.6667,-17.1,66.0,55,4,11.32
2629833,husavik,IS,1644100021,66.0449,-17.3389,19.31,96,100,31.56
2514651,los llanos de aridane,ES,1644100051,28.6585,-17.9182,63.12,47,0,4.0
3412093,vestmannaeyjar,IS,1644100018,63.4427,-20.2734,29.3,67,92,10.67
3413604,eyrarbakki,IS,1644099992,63.863,-21.1481,24.85,81,100,11.07
3416888,grindavik,IS,1644100022,63.8424,-22.4338,25.27,80,75,4.61
3374333,praya,CV,1644100045,14.9215,-23.5087,72.14,68,0,13.8
3414079,olafsvik,IS,1644099940,64.8945,-23.7142,30.72,86,100,36.13
3374210,sao filipe,CV,1644100112,14.8961,-24.4956,73.15,70,0,10.2
3372472,vila franca do campo,PT,1644100069,37.7167,-25.4333,59.2,82,89,11.39
3372707,ribeira grande,PT,1644099987,38.5167,-28.7,60.33,76,28,11.23
3386213,touros,BR,1644100009,-5.1989,-35.4608,81.5,69,10,13.31
3465329,coruripe,BR,1644099930,-10.1256,-36.1756,79.7,69,100,12.97
3461289,indiaroba,BR,1644100123,-11.5192,-37.5117,77.9,78,74,4.52
3424607,tasiilaq,GL,1644099876,65.6145,-37.6368,17.76,59,97,10.22
3466980,caravelas,BR,1644099728,-17.7125,-39.2481,77.67,79,100,9.08
3465769,conceicao da barra,BR,1644100070,-18.5933,-39.7322,76.5,82,100,9.4
3393692,itarema,BR,1644100076,-2.9248,-39.9167,79.5,77,11,10.87
3445026,vila velha,BR,1644099771,-20.3297,-40.2925,78.75,87,75,8.01
3448903,sao joao da barra,BR,1644099823,-21.6403,-41.0511,77.36,83,32,26.91
3471451,arraial do cabo,BR,1644100037,-22.9661,-42.0278,80.46,78,0,12.66
3385899,tutoia,BR,1644100101,-2.7619,-42.2744,82.38,82,100,12.06
3403251,canto do buriti,BR,1644099995,-8.11,-42.9444,78.46,65,33,4.05
3403309,cantanhede,BR,1644100067,-3.6333,-44.3767,74.57,97,100,3.36
3421765,nanortalik,GL,1644100069,60.1432,-45.2371,9.68,59,75,14.05
3461425,ilhabela,BR,1644100057,-23.7781,-45.3581,78.13,90,100,6.08
3402648,carutapera,BR,1644100005,-1.195,-46.02,75.49,94,100,7.09
3420846,qaqortoq,GL,1644100116,60.7167,-46.0333,1.9,74,52,6.67
3421719,narsaq,GL,1644100093,60.9167,-46.05,1.62,71,42,7.45
3459785,joao pinheiro,BR,1644100085,-17.7425,-46.1725,73.18,84,100,2.75
3448403,sao pedro,BR,1644100077,-22.5486,-47.9139,74.19,97,96,6.67
3407357,araguaina,BR,1644100118,-7.1911,-48.2072,78.3,80,79,2.75
3474574,palmas,BR,1644100063,-10.2128,-48.3603,82.27,78,40,4.61
3461370,imbituba,BR,1644100080,-28.24,-48.6703,76.89,90,80,2.17
3401845,conceicao do araguaia,BR,1644100019,-8.2578,-49.2647,78.04,89,61,4.45
3421193,paamiut,GL,1644100034,61.994,-49.6678,-4.04,86,77,10.51
3466704,castro,BR,1644099860,-24.7911,-50.0119,67.98,96,68,9.35
3466165,cidreira,BR,1644099848,-30.1811,-50.2056,74.91,89,100,3.87
3423146,ilulissat,GL,1644099798,69.2167,-51.1,-0.9,75,100,8.41
3421319,nuuk,GL,1644099984,64.1835,-51.7216,7.41,85,100,6.91
3407762,amapa,BR,1644100132,1.0,-52.0,73.45,98,96,2.86
3451138,rio grande,BR,1644099956,-32.035,-52.0986,74.95,75,29,9.84
3470709,barra do garcas,BR,1644099799,-15.89,-52.2567,79.41,77,86,0.83
3382160,cayenne,GF,1644100030,4.9333,-52.3333,81.09,84,75,5.99
6167817,torbay,CA,1644099776,47.6666,-52.7314,50.58,94,100,29.93
3424901,aasiaat,GL,1644100055,68.7098,-52.8699,-7.26,85,98,7.65
3421982,maniitsoq,GL,1644100107,65.4167,-52.9,4.35,95,100,9.57
5905393,bonavista,CA,1644100113,48.6499,-53.1147,42.12,99,100,7.09
3443061,chuy,UY,1644099810,-33.6971,-53.4616,70.03,84,65,9.33
3422683,kangaatsiaq,GL,1644100106,68.3065,-53.4641,-7.87,96,76,6.87
3450083,santa maria,BR,1644099876,-29.6842,-53.8069,81.7,78,20,4.61
3428068,san vicente,AR,1644099862,-26.6167,-54.1333,71.35,85,100,0.76
3440777,rocha,UY,1644100038,-34.4833,-54.3333,67.62,78,33,12.12
3381538,grand-santi,GF,1644100099,4.25,-54.3833,73.6,98,60,3.51
3465228,coxim,BR,1644099992,-18.5067,-54.76,78.73,86,87,3.27
3436616,ygatimi,PY,1644099988,-24.0833,-55.5,72.1,94,98,1.32
3418910,upernavik,GL,1644099787,72.7868,-56.1549,-4.14,99,100,2.8
3424941,miquelon,PM,1644100081,47.0975,-56.3814,35.6,99,100,14.05
3430863,mar del plata,AR,1644100015,-38.0023,-57.5575,64.09,81,100,1.99
3452712,porto murtinho,BR,1644099863,-21.6989,-57.8825,76.53,91,94,8.39
3374083,bathsheba,BB,1644100020,13.2167,-59.5167,79.41,69,20,10.36
3373652,oistins,BB,1644100008,13.0667,-59.5333,78.89,69,20,10.36
3924679,vilhena,BR,1644100054,-12.7406,-60.1458,79.02,78,20,6.91
3577933,chateaubelair,VC,1644100107,13.2833,-61.25,77.61,73,40,5.75
6111867,port hawkesbury,CA,1644100076,45.6169,-61.3485,26.19,90,100,16.11
3580279,gouyave,GD,1644100082,12.1646,-61.7296,79.57,74,20,18.41
3839982,punta alta,AR,1644100072,-38.8759,-62.0736,63.12,60,100,18.37
3625710,upata,VE,1644100017,8.0086,-62.3989,81.3,50,79,5.26
3832899,viedma,AR,1644100026,-40.8135,-62.9967,62.47,48,66,13.62
3855075,general pico,AR,1644100046,-35.6566,-63.7568,71.17,36,61,13.04
3839307,rawson,AR,1644099928,-43.3002,-65.1023,62.17,45,0,10.49
3838233,salta,AR,1644100081,-24.7859,-65.4117,75.49,57,75,3.0
6096551,pangnirtung,CA,1644099912,66.1451,-65.7125,-27.31,100,100,1.14
3625428,venezuela,VE,1644100068,8.0,-66.0,94.59,29,22,8.01
5915359,cap-chat,CA,1644100021,49.1001,-66.6821,5.0,66,100,13.8
3662927,pauini,BR,1644100117,-7.7136,-66.9764,76.42,86,100,2.04
3855065,general roca,AR,1644099840,-39.0333,-67.5833,77.4,26,0,8.93
3843123,neuquen,AR,1644099997,-38.9516,-68.0591,76.89,33,0,8.05
3833367,ushuaia,AR,1644099779,-54.8,-68.3,56.82,58,40,24.16
5983720,iqaluit,CA,1644099804,63.7506,-68.5145,-27.67,68,75,2.3
3837213,san juan,AR,1644099938,-31.5375,-68.5364,66.54,49,89,19.95
5924351,clyde river,CA,1644100040,70.4692,-68.5914,-28.97,68,75,5.75
3931470,puerto maldonado,PE,1644100047,-12.6,-69.1833,78.42,93,99,2.06
3838859,rio gallegos,AR,1644099997,-51.6226,-69.2181,69.85,37,40,25.32
3831208,qaanaaq,GL,1644099826,77.484,-69.3632,1.17,97,100,2.62
3492908,santo domingo,DO,1644100060,18.5001,-69.9886,80.24,74,40,9.22
3577154,oranjestad,AW,1644100041,12.524,-70.027,80.55,65,20,12.66
3892454,diego de almagro,CL,1644099986,-26.3667,-70.05,78.76,19,0,11.83
3928128,tacna,PE,1644100077,-18.0056,-70.2483,68.2,60,0,10.36
6620467,saint-jean-port-joli,CA,1644100042,47.2171,-70.2658,11.08,75,35,5.14
3664243,feijo,BR,1644100059,-8.1642,-70.3536,80.06,81,98,2.75
3870243,taltal,CL,1644099992,-25.4,-70.4833,71.15,63,23,5.21
3874787,punta arenas,CL,1644099599,-53.15,-70.9167,60.91,59,75,21.85
3893629,coquimbo,CL,1644100094,-29.9533,-71.3436,65.93,77,75,11.5
3868626,valparaiso,CL,1644100067,-33.0393,-71.6273,80.83,57,0,16.11
3894426,coihaique,CL,1644099777,-45.5752,-72.0662,68.61,49,75,9.22
3628473,san cristobal,VE,1644100064,7.7669,-72.225,73.58,85,84,2.55
4946620,palmer,US,1644100108,42.1584,-72.3287,21.81,58,20,3.0
3893726,constitucion,CL,1644099987,-35.3333,-72.4167,67.78,60,2,16.2
3662761,porto walter,BR,1644100129,-8.2686,-72.7439,86.04,56,99,5.57
5126209,mastic beach,US,1644100081,40.7668,-72.8521,26.64,61,54,5.99
3893894,concepcion,CL,1644099980,-36.827,-73.0498,73.2,53,0,18.41
3870282,talcahuano,CL,1644099987,-36.7167,-73.1167,73.08,53,0,18.41
5238499,middlebury,US,1644099989,44.0153,-73.1673,15.19,55,0,12.66
5282297,bethel,US,1644100035,41.3712,-73.414,24.89,71,0,1.01
3883457,lebu,CL,1644100016,-37.6167,-73.65,62.2,75,1,20.09
3899695,ancud,CL,1644099923,-41.8697,-73.8203,68.23,63,15,4.76
5106841,albany,US,1644099998,42.6001,-73.9662,17.1,55,3,4.0
3792382,cartagena del chaira,CO,1644100017,1.3349,-74.8429,78.08,82,65,3.89
5919850,chapais,CA,1644100023,49.7834,-74.8492,-2.42,86,94,7.56
3672077,planadas,CO,1644100089,3.197,-75.6451,79.23,86,87,2.19
5110365,broome,US,1644099953,42.2506,-75.833,16.21,69,0,1.99
3932145,pisco,PE,1644099895,-13.7,-76.2167,74.01,83,0,8.05
4362001,mayo,US,1644100101,38.8876,-76.5119,32.74,48,0,4.0
3571913,marsh harbour,BS,1644100003,26.5412,-77.0636,74.07,59,0,6.93
3939761,hualmay,PE,1644100105,-11.0964,-77.6139,74.16,73,21,11.88
3680539,cuaspud,CO,1644100129,0.8628,-77.7263,55.24,94,75,0.0
3939168,huarmey,PE,1644099898,-10.0681,-78.1522,75.25,73,12,11.88
5122534,jamestown,US,1644099702,42.097,-79.2353,19.04,33,20,4.61
4149959,cape canaveral,US,1644100029,28.4058,-80.6048,62.04,83,100,9.22
6078372,moose factory,CA,1644100016,51.2585,-80.6094,1.4,42,0,0.0
3691954,sechura,PE,1644100069,-5.5569,-80.8222,81.23,55,15,18.41
3694112,paita,PE,1644099949,-5.0892,-81.1144,74.43,73,3,17.6
3691582,talara,PE,1644100078,-4.5772,-81.2719,74.26,74,7,12.68
3670218,san andres,CO,1644100009,12.5847,-81.7006,82.42,74,20,8.05
5962442,goderich,CA,1644100033,43.7501,-81.7165,17.92,67,98,6.91
4160812,key west,US,1644099791,24.5557,-81.7826,82.4,69,0,8.05
4231997,avera,US,1644099792,33.194,-82.5271,51.75,36,3,7.07
4297983,lexington,US,1644099959,37.9887,-84.4777,28.54,69,0,4.61
4513583,hamilton,US,1644099901,39.1834,-84.5333,25.59,75,75,3.0
3622716,nicoya,CR,1644100077,10.1483,-85.452,87.35,30,4,17.29
4922388,kokomo,US,1644099883,40.4864,-86.1336,22.93,71,0,1.99
4301317,morehead,US,1644100058,37.2711,-87.1764,31.14,61,5,1.99
4891382,evanston,US,1644100030,42.0411,-87.6901,21.58,57,20,7.0
3521972,panaba,MX,1644099947,21.2833,-88.2667,73.96,82,84,14.85
3581194,san ignacio,BZ,1644100063,17.1561,-89.0714,69.94,100,100,9.22
3652758,puerto baquerizo moreno,EC,1644100125,-0.9,-89.6,81.59,78,20,13.8
4319518,chalmette,US,1644100052,29.9427,-89.9634,51.85,45,0,7.0
4393451,kennett,US,1644100019,36.2362,-90.0556,34.03,62,0,4.61
3652764,puerto ayora,EC,1644099771,-0.7393,-90.3518,78.55,85,70,5.99
4328010,houma,US,1644100058,29.5958,-90.7195,52.0,38,0,13.8
5888001,atikokan,CA,1644100053,48.7555,-91.6216,10.65,94,100,7.83
4406282,rolla,US,1644100125,37.9514,-91.7713,42.24,43,0,7.0
5044290,saint anthony,US,1644099913,45.0205,-93.218,25.14,63,0,5.01
5051640,waconia,US,1644100040,44.8508,-93.7869,25.77,72,64,15.01
4692856,galveston,US,1644100010,29.3669,-94.9669,53.13,38,0,5.75
5067114,douglas,US,1644099893,41.3,-96.167,55.22,27,0,1.99
4552215,stillwater,US,1644100080,36.1156,-97.0584,46.81,34,0,20.71
3520994,puerto escondido,MX,1644100063,15.85,-97.0667,85.03,65,20,6.91
4735966,temple,US,1644099872,31.0982,-97.3428,52.36,31,0,8.05
4726521,san patricio,US,1644100026,28.017,-97.5169,55.81,28,0,4.85
6165406,thompson,CA,1644099890,55.7435,-97.8558,-9.24,59,75,3.44
3514633,vista hermosa,MX,1644100130,19.5167,-99.2167,69.19,32,40,9.22
5935341,dauphin,CA,1644099771,51.1494,-100.0502,-2.06,78,100,6.91
5533366,west odessa,US,1644100037,31.8424,-102.4988,50.72,22,0,14.97
3996426,matamoros,MX,1644100073,25.5333,-103.25,57.31,35,20,6.91
4013679,coahuayana,MX,1644100080,18.7333,-103.6833,89.08,46,14,8.14
5422191,fountain,US,1644100104,38.6822,-104.7008,53.06,26,0,9.22
5917430,caronport,CA,1644100053,50.4501,-105.8179,19.58,94,99,10.69
4012593,creel,MX,1644100078,27.75,-107.6333,54.97,25,0,13.02
3985710,cabo san lucas,MX,1644100019,22.8909,-109.9124,74.61,63,20,4.0
5314245,show low,US,1644100031,34.2542,-110.0298,46.08,24,0,11.5
3995236,mulege,MX,1644100128,26.8833,-111.9833,65.32,47,0,12.57
5546220,saint george,US,1644100044,37.1041,-113.5841,61.27,17,0,3.0
6104841,pincher creek,CA,1644100065,49.4833,-113.952,44.76,47,75,17.27
4021858,guerrero negro,MX,1644099861,27.9769,-114.0611,70.09,22,0,7.52
5686121,whitefish,US,1644100131,48.4111,-114.3376,42.55,52,100,5.75
6185377,yellowknife,CA,1644099995,62.456,-114.3525,-9.71,86,20,5.75
5287565,bullhead city,US,1644100049,35.1478,-114.5683,71.28,13,0,27.63
3984997,san quintin,MX,1644099968,30.4833,-115.95,63.0,30,0,9.24
5367788,lompoc,US,1644100086,34.6391,-120.4579,75.51,31,0,13.8
5374376,monterey,US,1644099996,36.2505,-121.2516,63.27,29,100,1.81
5364271,laguna,US,1644099997,38.421,-121.4238,68.65,46,0,1.01
5380437,pacific grove,US,1644100082,36.6177,-121.9166,68.58,51,0,1.01
5391959,san francisco,US,1644099322,37.7749,-122.4194,66.96,53,100,1.99
5955902,fort nelson,CA,1644099813,58.8053,-122.7002,26.17,96,100,2.08
5733351,jackson,US,1644100044,42.4165,-122.8345,58.91,47,0,0.0
5563839,fortuna,US,1644100051,40.5982,-124.1573,65.43,60,0,1.01
5881688,fort saint james,CA,1644099994,54.4333,-124.25,36.63,93,87,5.66
6098642,parksville,CA,1644100118,49.3163,-124.3195,46.72,86,100,0.0
6089245,norman wells,CA,1644100027,65.282,-126.8329,-3.51,90,97,6.85
6170031,tuktoyaktuk,CA,1644099988,69.4541,-133.0374,-32.8,75,20,11.5
4030556,rikitea,PF,1644099988,-23.1203,-134.9692,79.09,73,96,10.54
5882953,aklavik,CA,1644100079,68.2191,-135.0107,-35.57,66,40,0.0
5557293,sitka,US,1644100041,57.0531,-135.33,42.69,75,100,20.71
5969025,haines junction,CA,1644099868,60.7522,-137.5108,31.95,69,100,6.91
4020109,atuona,PF,1644099752,-9.8,-139.0333,79.03,77,6,22.24
5861897,fairbanks,US,1644100100,64.8378,-147.7164,11.3,77,100,0.0
5859699,college,US,1644100039,64.8569,-147.8028,11.28,77,75,3.44
4033557,tautira,PF,1644099953,-17.7333,-149.15,86.02,74,27,19.55
4034551,faanui,PF,1644099991,-16.4833,-151.75,81.68,72,13,19.51
5866583,kodiak,US,1644099890,57.79,-152.4072,36.91,87,100,5.75
5855927,hilo,US,1644099441,19.7297,-155.09,75.79,79,100,5.75
5847411,kahului,US,1644099949,20.8947,-156.47,82.42,66,40,11.5
5880054,barrow,US,1644099791,71.2906,-156.7887,-18.38,69,0,12.66
5856516,ahuimanu,US,1644100046,21.4447,-157.8378,80.78,67,75,5.01
5850554,makakilo city,US,1644100036,21.3469,-158.0858,79.61,64,100,8.05
5851349,nanakuli,US,1644100033,21.3906,-158.1547,81.03,63,100,8.05
5848280,kapaa,US,1644099772,22.0752,-159.319,79.48,67,0,1.99
4035715,avarua,CK,1644099838,-21.2078,-159.775,82.45,78,100,14.97
4036284,alofi,NU,1644099884,-19.0595,-169.9187,80.49,89,98,8.05
4031637,lavrentiya,RU,1644100061,65.5833,-171.0,-15.97,94,9,9.64
4031574,provideniya,RU,1644099886,64.3833,-173.3,-4.45,85,2,10.25
4032243,vaini,TO,1644099766,-21.2,-175.2,78.96,100,100,14.97
4031742,egvekinot,RU,1644100080,66.3167,-179.1667,-9.54,86,10,12.46
